$GPRMC,175143.500,A,5446.6231,N,00927.1161,E,0.34,30.07,121113,,,A*52
$GPRMC,175143.600,A,5446.6232,N,00927.1162,E,0.34,30.57,121113,,,A*54
$GPRMC,175143.700,A,5446.6232,N,00927.1162,E,0.34,31.07,121113,,,A*51
$GPRMC,175143.800,A,5446.6232,N,00927.1162,E,0.34,31.56,121113,,,A*5A
$GPRMC,175143.900,A,5446.6232,N,00927.1162,E,0.33,32.03,121113,,,A*5F
$GPRMC,175144.000,A,5446.6232,N,00927.1162,E,0.33,32.47,121113,,,A*51
$GPRMC,175144.100,A,5446.6232,N,00927.1162,E,0.33,32.89,121113,,,A*52
$GPRMC,175144.200,A,5446.6232,N,00927.1162,E,0.32,33.27,121113,,,A*55
$GPRMC,175144.300,A,5446.6232,N,00927.1162,E,0.32,33.63,121113,,,A*54
$GPRMC,175144.400,A,5446.6232,N,00927.1163,E,0.32,33.95,121113,,,A*5B
$GPRMC,175144.500,A,5446.6232,N,00927.1163,E,0.32,34.23,121113,,,A*50
$GPRMC,175144.600,A,5446.6232,N,00927.1163,E,0.31,34.47,121113,,,A*52
$GPRMC,175144.700,A,5446.6232,N,00927.1163,E,0.30,34.70,121113,,,A*56
$GPRMC,175144.800,A,5446.6232,N,00927.1163,E,0.30,34.90,121113,,,A*57
$GPRMC,175144.900,A,5446.6232,N,00927.1163,E,0.30,35.07,121113,,,A*59
$GPRMC,175145.000,A,5446.6232,N,00927.1163,E,0.30,35.24,121113,,,A*50
$GPRMC,175145.100,A,5446.6232,N,00927.1163,E,0.30,35.38,121113,,,A*5C
$GPRMC,175145.200,A,5446.6232,N,00927.1163,E,0.30,35.50,121113,,,A*51
$GPRMC,175145.300,A,5446.6232,N,00927.1163,E,0.30,35.61,121113,,,A*52
$GPRMC,175145.400,A,5446.6233,N,00927.1164,E,0.31,35.72,121113,,,A*50
$GPRMC,175145.500,A,5446.6233,N,00927.1164,E,0.30,35.84,121113,,,A*59
$GPRMC,175145.600,A,5446.6233,N,00927.1164,E,0.29,35.96,121113,,,A*51
$GPRMC,175145.700,A,5446.6233,N,00927.1164,E,0.29,36.09,121113,,,A*55
$GPRMC,175145.800,A,5446.6233,N,00927.1164,E,0.30,36.20,121113,,,A*59
$GPRMC,175145.900,A,5446.6233,N,00927.1164,E,0.30,36.28,121113,,,A*50
$GPRMC,175146.000,A,5446.6233,N,00927.1164,E,0.30,36.35,121113,,,A*56
$GPRMC,175146.100,A,5446.6233,N,00927.1164,E,0.30,36.43,121113,,,A*56
$GPRMC,175146.200,A,5446.6233,N,00927.1164,E,0.29,36.51,121113,,,A*5E
$GPRMC,175146.300,A,5446.6233,N,00927.1164,E,0.28,36.59,121113,,,A*56
$GPRMC,175146.400,A,5446.6233,N,00927.1164,E,0.28,36.65,121113,,,A*5E
$GPRMC,175146.500,A,5446.6233,N,00927.1164,E,0.26,36.71,121113,,,A*54
$GPRMC,175146.600,A,5446.6233,N,00927.1165,E,0.25,36.78,121113,,,A*5C
$GPRMC,175146.700,A,5446.6233,N,00927.1165,E,0.25,36.86,121113,,,A*5C
$GPRMC,175146.800,A,5446.6233,N,00927.1165,E,0.23,36.94,121113,,,A*56
$GPRMC,175146.900,A,5446.6233,N,00927.1165,E,0.23,37.00,121113,,,A*5B
$GPRMC,175147.000,A,5446.6233,N,00927.1165,E,0.22,37.03,121113,,,A*51
$GPRMC,175147.100,A,5446.6233,N,00927.1165,E,0.22,37.06,121113,,,A*55
$GPRMC,175147.200,A,5446.6234,N,00927.1165,E,0.23,37.12,121113,,,A*55
$GPRMC,175147.300,A,5446.6234,N,00927.1165,E,0.23,37.17,121113,,,A*51
$GPRMC,175147.400,A,5446.6234,N,00927.1165,E,0.22,37.23,121113,,,A*50
$GPRMC,175147.500,A,5446.6234,N,00927.1165,E,0.22,37.29,121113,,,A*5B
$GPRMC,175147.600,A,5446.6234,N,00927.1165,E,0.21,37.35,121113,,,A*56
$GPRMC,175147.700,A,5446.6234,N,00927.1165,E,0.20,37.39,121113,,,A*5A
$GPRMC,175147.800,A,5446.6234,N,00927.1165,E,0.18,37.43,121113,,,A*53
$GPRMC,175147.900,A,5446.6234,N,00927.1165,E,0.18,37.45,121113,,,A*54
$GPRMC,175148.000,A,5446.6234,N,00927.1165,E,0.18,37.49,121113,,,A*5E
$GPRMC,175148.100,A,5446.6234,N,00927.1165,E,0.17,37.57,121113,,,A*5F
$GPRMC,175148.200,A,5446.6234,N,00927.1165,E,0.18,37.65,121113,,,A*52
$GPRMC,175148.300,A,5446.6234,N,00927.1165,E,0.18,37.72,121113,,,A*55
$GPRMC,175148.400,A,5446.6234,N,00927.1166,E,0.18,37.81,121113,,,A*5D
$GPRMC,175148.500,A,5446.6234,N,00927.1166,E,0.17,37.89,121113,,,A*5B
$GPRMC,175148.600,A,5446.6234,N,00927.1166,E,0.17,37.98,121113,,,A*58
$GPRMC,175148.700,A,5446.6234,N,00927.1166,E,0.17,38.05,121113,,,A*52
$GPRMC,175148.800,A,5446.6234,N,00927.1166,E,0.17,38.11,121113,,,A*58
$GPRMC,175148.900,A,5446.6234,N,00927.1166,E,0.18,38.18,121113,,,A*5F
$GPRMC,175149.000,A,5446.6234,N,00927.1166,E,0.19,38.23,121113,,,A*5E
$GPRMC,175149.100,A,5446.6234,N,00927.1166,E,0.20,38.26,121113,,,A*50
$GPRMC,175149.200,A,5446.6234,N,00927.1166,E,0.21,38.28,121113,,,A*5C
$GPRMC,175149.300,A,5446.6234,N,00927.1166,E,0.21,38.27,121113,,,A*52
$GPRMC,175149.400,A,5446.6234,N,00927.1166,E,0.22,38.24,121113,,,A*55
$GPRMC,175149.500,A,5446.6234,N,00927.1166,E,0.22,38.18,121113,,,A*5B
$GPRMC,175149.600,A,5446.6235,N,00927.1166,E,0.23,38.08,121113,,,A*59
$GPRMC,175149.700,A,5446.6235,N,00927.1166,E,0.24,37.94,121113,,,A*55
$GPRMC,175149.800,A,5446.6235,N,00927.1166,E,0.24,37.77,121113,,,A*57
$GPRMC,175149.900,A,5446.6235,N,00927.1166,E,0.26,37.58,121113,,,A*59
$GPRMC,175150.000,A,5446.6235,N,00927.1166,E,0.27,37.32,121113,,,A*55
$GPRMC,175150.100,A,5446.6235,N,00927.1167,E,0.29,37.02,121113,,,A*58
$GPRMC,175150.200,A,5446.6235,N,00927.1167,E,0.30,36.67,121113,,,A*51
$GPRMC,175150.300,A,5446.6235,N,00927.1167,E,0.31,36.29,121113,,,A*5B
$GPRMC,175150.400,A,5446.6235,N,00927.1167,E,0.31,35.92,121113,,,A*5F
$GPRMC,175150.500,A,5446.6235,N,00927.1167,E,0.32,35.54,121113,,,A*57
$GPRMC,175150.600,A,5446.6235,N,00927.1167,E,0.32,35.21,121113,,,A*56
$GPRMC,175150.700,A,5446.6235,N,00927.1167,E,0.32,34.92,121113,,,A*5E
$GPRMC,175150.800,A,5446.6235,N,00927.1167,E,0.33,34.70,121113,,,A*5C
$GPRMC,175150.900,A,5446.6236,N,00927.1167,E,0.34,34.55,121113,,,A*5E
$GPRMC,175151.000,A,5446.6236,N,00927.1167,E,0.35,34.47,121113,,,A*54
$GPRMC,175151.100,A,5446.6236,N,00927.1167,E,0.35,34.45,121113,,,A*57
$GPRMC,175151.200,A,5446.6236,N,00927.1167,E,0.36,34.44,121113,,,A*56
$GPRMC,175151.300,A,5446.6236,N,00927.1167,E,0.37,34.43,121113,,,A*51
$GPRMC,175151.400,A,5446.6236,N,00927.1167,E,0.37,34.38,121113,,,A*5A
$GPRMC,175151.500,A,5446.6236,N,00927.1167,E,0.36,34.26,121113,,,A*55
$GPRMC,175151.600,A,5446.6236,N,00927.1168,E,0.36,34.07,121113,,,A*5A
$GPRMC,175151.700,A,5446.6236,N,00927.1168,E,0.36,33.84,121113,,,A*57
$GPRMC,175151.800,A,5446.6236,N,00927.1168,E,0.36,33.53,121113,,,A*52
$GPRMC,175151.900,A,5446.6236,N,00927.1168,E,0.36,33.17,121113,,,A*53
$GPRMC,175152.000,A,5446.6237,N,00927.1168,E,0.36,32.73,121113,,,A*5B
$GPRMC,175152.100,A,5446.6237,N,00927.1168,E,0.37,32.24,121113,,,A*59
$GPRMC,175152.200,A,5446.6237,N,00927.1168,E,0.38,31.73,121113,,,A*54
$GPRMC,175152.300,A,5446.6237,N,00927.1168,E,0.38,31.22,121113,,,A*51
$GPRMC,175152.400,A,5446.6237,N,00927.1168,E,0.39,30.70,121113,,,A*51
$GPRMC,175152.500,A,5446.6237,N,00927.1168,E,0.40,30.21,121113,,,A*5A
$GPRMC,175152.600,A,5446.6237,N,00927.1168,E,0.40,29.73,121113,,,A*56
$GPRMC,175152.700,A,5446.6237,N,00927.1168,E,0.39,29.26,121113,,,A*59
$GPRMC,175152.800,A,5446.6237,N,00927.1168,E,0.39,28.81,121113,,,A*5A
$GPRMC,175152.900,A,5446.6237,N,00927.1168,E,0.39,28.41,121113,,,A*57
$GPRMC,175153.000,A,5446.6238,N,00927.1168,E,0.39,28.06,121113,,,A*53
$GPRMC,175153.100,A,5446.6238,N,00927.1168,E,0.39,27.75,121113,,,A*59
$GPRMC,175153.200,A,5446.6238,N,00927.1168,E,0.39,27.50,121113,,,A*5D
$GPRMC,175153.300,A,5446.6238,N,00927.1168,E,0.40,27.29,121113,,,A*5C
$GPRMC,175153.400,A,5446.6238,N,00927.1168,E,0.41,27.16,121113,,,A*56
$GPRMC,175153.500,A,5446.6238,N,00927.1168,E,0.41,27.10,121113,,,A*51
$GPRMC,175153.600,A,5446.6238,N,00927.1169,E,0.42,27.14,121113,,,A*54
$GPRMC,175153.700,A,5446.6238,N,00927.1169,E,0.42,27.25,121113,,,A*57
$GPRMC,175153.800,A,5446.6238,N,00927.1169,E,0.42,27.41,121113,,,A*5A
$GPRMC,175153.900,A,5446.6239,N,00927.1169,E,0.42,27.58,121113,,,A*52
$GPRMC,175154.000,A,5446.6239,N,00927.1169,E,0.43,27.76,121113,,,A*51
$GPRMC,175154.100,A,5446.6239,N,00927.1169,E,0.44,27.96,121113,,,A*59
$GPRMC,175154.200,A,5446.6239,N,00927.1169,E,0.44,28.18,121113,,,A*53
$GPRMC,175154.300,A,5446.6239,N,00927.1169,E,0.43,28.35,121113,,,A*5A
$GPRMC,175154.400,A,5446.6239,N,00927.1169,E,0.43,28.50,121113,,,A*5E
$GPRMC,175154.500,A,5446.6239,N,00927.1169,E,0.43,28.64,121113,,,A*58
$GPRMC,175154.600,A,5446.6239,N,00927.1170,E,0.42,28.76,121113,,,A*51
$GPRMC,175154.700,A,5446.6239,N,00927.1170,E,0.42,28.86,121113,,,A*5F
$GPRMC,175154.800,A,5446.6239,N,00927.1170,E,0.42,28.95,121113,,,A*52
$GPRMC,175154.900,A,5446.6240,N,00927.1170,E,0.42,29.04,121113,,,A*54
$GPRMC,175155.000,A,5446.6240,N,00927.1170,E,0.41,29.10,121113,,,A*5A
$GPRMC,175155.100,A,5446.6240,N,00927.1170,E,0.41,29.13,121113,,,A*58
$GPRMC,175155.200,A,5446.6240,N,00927.1170,E,0.40,29.12,121113,,,A*5B
$GPRMC,175155.300,A,5446.6240,N,00927.1170,E,0.40,29.08,121113,,,A*51
$GPRMC,175155.400,A,5446.6240,N,00927.1170,E,0.39,29.03,121113,,,A*53
$GPRMC,175155.500,A,5446.6240,N,00927.1170,E,0.38,28.95,121113,,,A*5D
$GPRMC,175155.600,A,5446.6240,N,00927.1170,E,0.38,28.87,121113,,,A*5D
$GPRMC,175155.700,A,5446.6240,N,00927.1170,E,0.38,28.78,121113,,,A*5C
$GPRMC,175155.800,A,5446.6240,N,00927.1171,E,0.39,28.66,121113,,,A*5C
$GPRMC,175155.900,A,5446.6241,N,00927.1171,E,0.39,28.51,121113,,,A*58
$GPRMC,175156.000,A,5446.6241,N,00927.1171,E,0.40,28.32,121113,,,A*59
$GPRMC,175156.100,A,5446.6241,N,00927.1171,E,0.41,28.11,121113,,,A*58
$GPRMC,175156.200,A,5446.6241,N,00927.1171,E,0.41,27.91,121113,,,A*5C
$GPRMC,175156.300,A,5446.6241,N,00927.1171,E,0.42,27.71,121113,,,A*50
$GPRMC,175156.400,A,5446.6241,N,00927.1171,E,0.43,27.48,121113,,,A*5C
$GPRMC,175156.500,A,5446.6241,N,00927.1171,E,0.42,27.25,121113,,,A*57
$GPRMC,175156.600,A,5446.6241,N,00927.1171,E,0.42,27.01,121113,,,A*52
$GPRMC,175156.700,A,5446.6241,N,00927.1171,E,0.40,26.80,121113,,,A*59
$GPRMC,175156.800,A,5446.6242,N,00927.1171,E,0.40,26.55,121113,,,A*5D
$GPRMC,175156.900,A,5446.6242,N,00927.1171,E,0.40,26.27,121113,,,A*59
$GPRMC,175157.000,A,5446.6242,N,00927.1171,E,0.41,25.98,121113,,,A*57
$GPRMC,175157.100,A,5446.6242,N,00927.1171,E,0.41,25.69,121113,,,A*58
$GPRMC,175157.200,A,5446.6242,N,00927.1171,E,0.41,25.41,121113,,,A*51
$GPRMC,175157.300,A,5446.6242,N,00927.1171,E,0.41,25.11,121113,,,A*55
$GPRMC,175157.400,A,5446.6242,N,00927.1171,E,0.41,24.78,121113,,,A*5C
$GPRMC,175157.500,A,5446.6242,N,00927.1171,E,0.42,24.38,121113,,,A*5A
$GPRMC,175157.600,A,5446.6242,N,00927.1171,E,0.43,23.93,121113,,,A*5E
$GPRMC,175157.700,A,5446.6243,N,00927.1171,E,0.44,23.47,121113,,,A*50
$GPRMC,175157.800,A,5446.6243,N,00927.1171,E,0.44,23.02,121113,,,A*5E
$GPRMC,175157.900,A,5446.6243,N,00927.1171,E,0.45,22.58,121113,,,A*50
$GPRMC,175158.000,A,5446.6243,N,00927.1171,E,0.45,22.14,121113,,,A*5E
$GPRMC,175158.100,A,5446.6243,N,00927.1171,E,0.46,21.69,121113,,,A*55
$GPRMC,175158.200,A,5446.6243,N,00927.1171,E,0.46,21.28,121113,,,A*53
$GPRMC,175158.300,A,5446.6243,N,00927.1171,E,0.46,20.85,121113,,,A*54
$GPRMC,175158.400,A,5446.6244,N,00927.1171,E,0.46,20.38,121113,,,A*52
$GPRMC,175158.500,A,5446.6244,N,00927.1171,E,0.48,19.86,121113,,,A*52
$GPRMC,175158.600,A,5446.6244,N,00927.1171,E,0.49,19.34,121113,,,A*59
$GPRMC,175158.700,A,5446.6244,N,00927.1171,E,0.49,18.80,121113,,,A*56
$GPRMC,175158.800,A,5446.6244,N,00927.1171,E,0.51,18.23,121113,,,A*59
$GPRMC,175158.900,A,5446.6244,N,00927.1171,E,0.52,17.63,121113,,,A*50
$GPRMC,175159.000,A,5446.6244,N,00927.1171,E,0.54,16.99,121113,,,A*5A
$GPRMC,175159.100,A,5446.6245,N,00927.1171,E,0.55,16.32,121113,,,A*5A
$GPRMC,175159.200,A,5446.6245,N,00927.1171,E,0.56,15.61,121113,,,A*5F
$GPRMC,175159.300,A,5446.6245,N,00927.1171,E,0.56,14.90,121113,,,A*51
$GPRMC,175159.400,A,5446.6245,N,00927.1171,E,0.56,14.19,121113,,,A*57
$GPRMC,175159.500,A,5446.6245,N,00927.1171,E,0.56,13.49,121113,,,A*54
$GPRMC,175159.600,A,5446.6245,N,00927.1171,E,0.55,12.81,121113,,,A*51
$GPRMC,175159.700,A,5446.6246,N,00927.1171,E,0.56,12.13,121113,,,A*5B
$GPRMC,175159.800,A,5446.6246,N,00927.1171,E,0.56,11.47,121113,,,A*56
$GPRMC,175159.900,A,5446.6246,N,00927.1171,E,0.57,10.83,121113,,,A*5F
$GPRMC,175200.000,A,5446.6246,N,00927.1171,E,0.57,10.20,121113,,,A*50
$GPRMC,175200.100,A,5446.6246,N,00927.1171,E,0.57,9.57,121113,,,A*69
$GPRMC,175200.200,A,5446.6246,N,00927.1171,E,0.58,8.94,121113,,,A*6B
$GPRMC,175200.300,A,5446.6247,N,00927.1171,E,0.59,8.31,121113,,,A*65
$GPRMC,175200.400,A,5446.6248,N,00927.1170,E,0.60,7.61,121113,,,A*6C
$GPRMC,175200.500,A,5446.6249,N,00927.1169,E,0.62,6.84,121113,,,A*6C
$GPRMC,175200.600,A,5446.6249,N,00927.1168,E,0.63,6.14,121113,,,A*66
$GPRMC,175200.700,A,5446.6250,N,00927.1167,E,0.62,5.50,121113,,,A*62
$GPRMC,175200.800,A,5446.6250,N,00927.1166,E,0.62,4.97,121113,,,A*66
$GPRMC,175200.900,A,5446.6250,N,00927.1165,E,0.61,4.42,121113,,,A*6F
$GPRMC,175201.000,A,5446.6251,N,00927.1163,E,0.60,3.82,121113,,,A*6A
$GPRMC,175201.100,A,5446.6251,N,00927.1162,E,0.58,3.23,121113,,,A*6A
$GPRMC,175201.200,A,5446.6250,N,00927.1161,E,0.57,2.71,121113,,,A*62
$GPRMC,175201.300,A,5446.6250,N,00927.1159,E,0.54,2.21,121113,,,A*6E
$GPRMC,175201.400,A,5446.6250,N,00927.1158,E,0.51,1.76,121113,,,A*6C
$GPRMC,175201.500,A,5446.6250,N,00927.1157,E,0.48,1.36,121113,,,A*6E
$GPRMC,175201.600,A,5446.6250,N,00927.1157,E,0.45,1.01,121113,,,A*64
$GPRMC,175201.700,A,5446.6250,N,00927.1156,E,0.43,0.65,121113,,,A*61
$GPRMC,175201.800,A,5446.6249,N,00927.1154,E,0.40,0.21,121113,,,A*67
$GPRMC,175201.900,A,5446.6249,N,00927.1153,E,0.38,359.74,121113,,,A*61
$GPRMC,175202.000,A,5446.6249,N,00927.1151,E,0.37,359.21,121113,,,A*66
$GPRMC,175202.100,A,5446.6248,N,00927.1149,E,0.37,358.64,121113,,,A*6F
$GPRMC,175202.200,A,5446.6248,N,00927.1148,E,0.37,358.01,121113,,,A*6E
$GPRMC,175202.300,A,5446.6248,N,00927.1146,E,0.39,357.29,121113,,,A*6A
$GPRMC,175202.400,A,5446.6247,N,00927.1145,E,0.40,356.54,121113,,,A*64
$GPRMC,175202.500,A,5446.6247,N,00927.1143,E,0.42,355.69,121113,,,A*6C
$GPRMC,175202.600,A,5446.6247,N,00927.1142,E,0.43,354.76,121113,,,A*60
$GPRMC,175202.700,A,5446.6246,N,00927.1140,E,0.44,353.80,121113,,,A*6B
$GPRMC,175202.800,A,5446.6246,N,00927.1139,E,0.43,352.97,121113,,,A*6A
$GPRMC,175202.900,A,5446.6245,N,00927.1137,E,0.41,352.25,121113,,,A*6D
$GPRMC,175203.000,A,5446.6245,N,00927.1135,E,0.37,351.63,121113,,,A*67
$GPRMC,175203.100,A,5446.6245,N,00927.1133,E,0.32,351.10,121113,,,A*61
$GPRMC,175203.200,A,5446.6244,N,00927.1132,E,0.26,350.77,121113,,,A*67
$GPRMC,175203.300,A,5446.6244,N,00927.1131,E,0.20,350.54,121113,,,A*62
$GPRMC,175203.400,A,5446.6244,N,00927.1131,E,0.15,350.36,121113,,,A*67
$GPRMC,175203.500,A,5446.6244,N,00927.1130,E,0.11,350.25,121113,,,A*61
$GPRMC,175203.600,A,5446.6244,N,00927.1129,E,0.07,350.20,121113,,,A*68
$GPRMC,175203.700,A,5446.6244,N,00927.1128,E,0.06,350.18,121113,,,A*62
$GPRMC,175203.800,A,5446.6244,N,00927.1126,E,0.07,350.22,121113,,,A*6B
$GPRMC,175203.900,A,5446.6244,N,00927.1125,E,0.09,350.30,121113,,,A*64
$GPRMC,175204.000,A,5446.6244,N,00927.1124,E,0.12,350.50,121113,,,A*67
$GPRMC,175204.100,A,5446.6244,N,00927.1123,E,0.14,350.62,121113,,,A*66
$GPRMC,175204.200,A,5446.6244,N,00927.1121,E,0.17,350.75,121113,,,A*62
$GPRMC,175204.300,A,5446.6244,N,00927.1120,E,0.19,350.99,121113,,,A*6E
$GPRMC,175204.400,A,5446.6243,N,00927.1119,E,0.21,351.31,121113,,,A*6C
$GPRMC,175204.500,A,5446.6243,N,00927.1119,E,0.20,351.71,121113,,,A*68
$GPRMC,175204.600,A,5446.6244,N,00927.1119,E,0.20,352.13,121113,,,A*6B
$GPRMC,175204.700,A,5446.6244,N,00927.1119,E,0.19,352.52,121113,,,A*65
$GPRMC,175204.800,A,5446.6244,N,00927.1119,E,0.19,352.84,121113,,,A*61
$GPRMC,175204.900,A,5446.6244,N,00927.1119,E,0.21,353.11,121113,,,A*66
$GPRMC,175205.000,A,5446.6244,N,00927.1119,E,0.22,353.41,121113,,,A*68
$GPRMC,175205.100,A,5446.6244,N,00927.1119,E,0.22,353.72,121113,,,A*69
$GPRMC,175205.200,A,5446.6244,N,00927.1119,E,0.23,354.03,121113,,,A*6A
$GPRMC,175205.300,A,5446.6244,N,00927.1119,E,0.23,354.20,121113,,,A*6A
$GPRMC,175205.400,A,5446.6244,N,00927.1119,E,0.26,354.28,121113,,,A*60
$GPRMC,175205.500,A,5446.6244,N,00927.1119,E,0.27,354.34,121113,,,A*6D
$GPRMC,175205.600,A,5446.6244,N,00927.1119,E,0.27,354.39,121113,,,A*63
$GPRMC,175205.700,A,5446.6244,N,00927.1119,E,0.26,354.41,121113,,,A*6C
$GPRMC,175205.800,A,5446.6244,N,00927.1119,E,0.24,354.45,121113,,,A*65
$GPRMC,175205.900,A,5446.6244,N,00927.1119,E,0.23,354.51,121113,,,A*66
$GPRMC,175206.000,A,5446.6244,N,00927.1119,E,0.20,354.62,121113,,,A*6F
$GPRMC,175206.100,A,5446.6244,N,00927.1119,E,0.16,354.81,121113,,,A*66
$GPRMC,175206.200,A,5446.6244,N,00927.1119,E,0.13,355.05,121113,,,A*6D
$GPRMC,175206.300,A,5446.6244,N,00927.1119,E,0.11,355.32,121113,,,A*6A
$GPRMC,175206.400,A,5446.6244,N,00927.1119,E,0.13,355.73,121113,,,A*6A
$GPRMC,175206.500,A,5446.6245,N,00927.1119,E,0.12,356.02,121113,,,A*6E
$GPRMC,175206.600,A,5446.6245,N,00927.1119,E,0.11,356.28,121113,,,A*66
$GPRMC,175206.700,A,5446.6245,N,00927.1119,E,0.09,356.40,121113,,,A*60
$GPRMC,175206.800,A,5446.6245,N,00927.1119,E,0.06,356.44,121113,,,A*64
$GPRMC,175206.900,A,5446.6245,N,00927.1119,E,0.05,356.52,121113,,,A*61
$GPRMC,175207.000,A,5446.6245,N,00927.1119,E,0.05,356.60,121113,,,A*68
$GPRMC,175207.100,A,5446.6245,N,00927.1119,E,0.04,356.61,121113,,,A*69
$GPRMC,175207.200,A,5446.6245,N,00927.1119,E,0.03,356.60,121113,,,A*6C
$GPRMC,175207.300,A,5446.6245,N,00927.1119,E,0.05,356.72,121113,,,A*68
$GPRMC,175207.400,A,5446.6245,N,00927.1119,E,0.06,356.90,121113,,,A*60
$GPRMC,175207.500,A,5446.6245,N,00927.1119,E,0.06,357.03,121113,,,A*6A
$GPRMC,175207.600,A,5446.6245,N,00927.1119,E,0.08,357.07,121113,,,A*63
$GPRMC,175207.700,A,5446.6245,N,00927.1118,E,0.09,357.04,121113,,,A*61
$GPRMC,175207.800,A,5446.6245,N,00927.1118,E,0.11,356.93,121113,,,A*68
$GPRMC,175207.900,A,5446.6245,N,00927.1118,E,0.13,356.84,121113,,,A*6D
$GPRMC,175208.000,A,5446.6245,N,00927.1118,E,0.16,356.83,121113,,,A*69
$GPRMC,175208.100,A,5446.6245,N,00927.1118,E,0.19,356.81,121113,,,A*65
$GPRMC,175208.200,A,5446.6245,N,00927.1118,E,0.21,356.70,121113,,,A*63
$GPRMC,175208.300,A,5446.6245,N,00927.1118,E,0.23,356.49,121113,,,A*6A
$GPRMC,175208.400,A,5446.6245,N,00927.1118,E,0.25,356.23,121113,,,A*67
$GPRMC,175208.500,A,5446.6245,N,00927.1118,E,0.24,355.86,121113,,,A*6B
$GPRMC,175208.600,A,5446.6245,N,00927.1118,E,0.22,355.49,121113,,,A*6D
$GPRMC,175208.700,A,5446.6245,N,00927.1118,E,0.21,355.03,121113,,,A*61
$GPRMC,175208.800,A,5446.6245,N,00927.1118,E,0.20,354.41,121113,,,A*68
$GPRMC,175208.900,A,5446.6246,N,00927.1118,E,0.20,353.69,121113,,,A*67
$GPRMC,175209.000,A,5446.6246,N,00927.1118,E,0.19,352.85,121113,,,A*66
$GPRMC,175209.100,A,5446.6246,N,00927.1118,E,0.17,351.96,121113,,,A*68
$GPRMC,175209.200,A,5446.6246,N,00927.1118,E,0.13,351.24,121113,,,A*66
$GPRMC,175209.300,A,5446.6246,N,00927.1118,E,0.10,350.68,121113,,,A*6D
$GPRMC,175209.400,A,5446.6246,N,00927.1118,E,0.05,350.46,121113,,,A*62
$GPRMC,175209.500,A,5446.6246,N,00927.1118,E,0.05,350.46,121113,,,A*63
$GPRMC,175209.600,A,5446.6246,N,00927.1118,E,0.07,350.63,121113,,,A*65
$GPRMC,175209.700,A,5446.6246,N,00927.1117,E,0.08,351.01,121113,,,A*61
$GPRMC,175209.800,A,5446.6246,N,00927.1118,E,0.10,351.64,121113,,,A*6B
$GPRMC,175209.900,A,5446.6246,N,00927.1118,E,0.13,352.62,121113,,,A*6C
$GPRMC,175210.000,A,5446.6246,N,00927.1118,E,0.18,354.01,121113,,,A*65
$GPRMC,175210.100,A,5446.6246,N,00927.1118,E,0.21,355.64,121113,,,A*6C
$GPRMC,175210.200,A,5446.6246,N,00927.1118,E,0.22,355.64,121113,,,A*6C
$GPRMC,175210.300,A,5446.6246,N,00927.1118,E,0.26,355.64,121113,,,A*69
$GPRMC,175210.400,A,5446.6246,N,00927.1118,E,0.29,355.64,121113,,,A*61
$GPRMC,175210.500,A,5446.6246,N,00927.1118,E,0.31,355.64,121113,,,A*69
$GPRMC,175210.600,A,5446.6246,N,00927.1118,E,0.35,355.64,121113,,,A*6E
$GPRMC,175210.700,A,5446.6246,N,00927.1118,E,0.36,355.64,121113,,,A*6C
$GPRMC,175210.800,A,5446.6246,N,00927.1119,E,0.38,355.64,121113,,,A*6C
$GPRMC,175210.900,A,5446.6246,N,00927.1119,E,0.38,355.64,121113,,,A*6D
$GPRMC,175211.000,A,5446.6246,N,00927.1119,E,0.38,355.64,121113,,,A*65
$GPRMC,175211.100,A,5446.6246,N,00927.1119,E,0.37,355.64,121113,,,A*6B
$GPRMC,175211.200,A,5446.6246,N,00927.1119,E,0.36,355.64,121113,,,A*69
$GPRMC,175211.300,A,5446.6246,N,00927.1119,E,0.33,355.64,121113,,,A*6D
$GPRMC,175211.400,A,5446.6246,N,00927.1120,E,0.29,355.64,121113,,,A*6B
$GPRMC,175211.500,A,5446.6246,N,00927.1120,E,0.24,355.64,121113,,,A*67
$GPRMC,175211.600,A,5446.6246,N,00927.1120,E,0.22,355.64,121113,,,A*62
$GPRMC,175211.700,A,5446.6246,N,00927.1120,E,0.19,355.64,121113,,,A*6B
$GPRMC,175211.800,A,5446.6246,N,00927.1120,E,0.22,355.64,121113,,,A*6C
$GPRMC,175211.900,A,5446.6246,N,00927.1120,E,0.23,355.64,121113,,,A*6C
$GPRMC,175212.000,A,5446.6246,N,00927.1120,E,0.24,355.64,121113,,,A*61
$GPRMC,175212.100,A,5446.6246,N,00927.1120,E,0.26,355.64,121113,,,A*62
$GPRMC,175212.200,A,5446.6245,N,00927.1120,E,0.27,355.64,121113,,,A*63
$GPRMC,175212.300,A,5446.6245,N,00927.1120,E,0.31,355.64,121113,,,A*65
$GPRMC,175212.400,A,5446.6245,N,00927.1121,E,0.36,355.64,121113,,,A*64
$GPRMC,175212.500,A,5446.6245,N,00927.1121,E,0.40,355.64,121113,,,A*64
$GPRMC,175212.600,A,5446.6245,N,00927.1121,E,0.46,355.64,121113,,,A*61
$GPRMC,175212.700,A,5446.6245,N,00927.1121,E,0.49,355.64,121113,,,A*6F
$GPRMC,175212.800,A,5446.6245,N,00927.1121,E,0.53,355.64,121113,,,A*6B
$GPRMC,175212.900,A,5446.6245,N,00927.1122,E,0.59,355.64,121113,,,A*63
$GPRMC,175213.000,A,5446.6246,N,00927.1122,E,0.60,73.62,121113,,,A*53
$GPRMC,175213.100,A,5446.6246,N,00927.1122,E,0.62,74.88,121113,,,A*53
$GPRMC,175213.200,A,5446.6246,N,00927.1122,E,0.64,76.38,121113,,,A*5F
$GPRMC,175213.300,A,5446.6246,N,00927.1123,E,0.66,77.78,121113,,,A*58
$GPRMC,175213.400,A,5446.6247,N,00927.1123,E,0.67,79.59,121113,,,A*52
$GPRMC,175213.500,A,5446.6247,N,00927.1123,E,0.69,80.52,121113,,,A*50
$GPRMC,175213.600,A,5446.6247,N,00927.1123,E,0.70,81.26,121113,,,A*59
$GPRMC,175213.700,A,5446.6247,N,00927.1122,E,0.70,81.81,121113,,,A*54
$GPRMC,175213.800,A,5446.6247,N,00927.1122,E,0.70,82.26,121113,,,A*55
$GPRMC,175213.900,A,5446.6247,N,00927.1122,E,0.70,82.59,121113,,,A*5C
$GPRMC,175214.000,A,5446.6247,N,00927.1121,E,0.69,82.88,121113,,,A*55
$GPRMC,175214.100,A,5446.6246,N,00927.1121,E,0.67,83.14,121113,,,A*5F
$GPRMC,175214.200,A,5446.6246,N,00927.1120,E,0.64,83.29,121113,,,A*50
$GPRMC,175214.300,A,5446.6246,N,00927.1120,E,0.61,83.36,121113,,,A*5A
$GPRMC,175214.400,A,5446.6246,N,00927.1119,E,0.57,83.30,121113,,,A*54
$GPRMC,175214.500,A,5446.6246,N,00927.1118,E,0.54,83.17,121113,,,A*52
$GPRMC,175214.600,A,5446.6246,N,00927.1118,E,0.50,82.89,121113,,,A*53
$GPRMC,175214.700,A,5446.6246,N,00927.1118,E,0.48,82.61,121113,,,A*5D
$GPRMC,175214.800,A,5446.6246,N,00927.1118,E,0.47,82.34,121113,,,A*5D
$GPRMC,175214.900,A,5446.6246,N,00927.1117,E,0.45,82.07,121113,,,A*51
$GPRMC,175215.000,A,5446.6246,N,00927.1117,E,0.45,81.87,121113,,,A*52
$GPRMC,175215.100,A,5446.6245,N,00927.1117,E,0.44,81.70,121113,,,A*59
$GPRMC,175215.200,A,5446.6245,N,00927.1117,E,0.44,81.54,121113,,,A*5C
$GPRMC,175215.300,A,5446.6245,N,00927.1117,E,0.43,81.39,121113,,,A*51
$GPRMC,175215.400,A,5446.6245,N,00927.1116,E,0.43,81.33,121113,,,A*5D
$GPRMC,175215.500,A,5446.6244,N,00927.1116,E,0.42,81.36,121113,,,A*59
$GPRMC,175215.600,A,5446.6244,N,00927.1115,E,0.41,81.46,121113,,,A*5D
$GPRMC,175215.700,A,5446.6243,N,00927.1114,E,0.41,81.62,121113,,,A*5C
$GPRMC,175215.800,A,5446.6243,N,00927.1114,E,0.42,81.72,121113,,,A*51
$GPRMC,175215.900,A,5446.6243,N,00927.1114,E,0.43,81.78,121113,,,A*5B
$GPRMC,175216.000,A,5446.6243,N,00927.1114,E,0.44,81.80,121113,,,A*51
$GPRMC,175216.100,A,5446.6243,N,00927.1114,E,0.45,81.83,121113,,,A*52
$GPRMC,175216.200,A,5446.6243,N,00927.1114,E,0.45,81.87,121113,,,A*55
$GPRMC,175216.300,A,5446.6242,N,00927.1113,E,0.45,81.87,121113,,,A*52
$GPRMC,175216.400,A,5446.6242,N,00927.1113,E,0.45,81.82,121113,,,A*50
$GPRMC,175216.500,A,5446.6242,N,00927.1112,E,0.44,81.70,121113,,,A*5C
$GPRMC,175216.600,A,5446.6241,N,00927.1112,E,0.43,81.44,121113,,,A*5C
$GPRMC,175216.700,A,5446.6241,N,00927.1111,E,0.42,81.26,121113,,,A*5B
$GPRMC,175216.800,A,5446.6240,N,00927.1110,E,0.41,81.13,121113,,,A*51
$GPRMC,175216.900,A,5446.6240,N,00927.1110,E,0.40,81.04,121113,,,A*57
$GPRMC,175217.000,A,5446.6240,N,00927.1109,E,0.39,80.99,121113,,,A*5C
$GPRMC,175217.100,A,5446.6240,N,00927.1109,E,0.38,80.96,121113,,,A*53
$GPRMC,175217.200,A,5446.6239,N,00927.1109,E,0.38,80.95,121113,,,A*5D
$GPRMC,175217.300,A,5446.6239,N,00927.1109,E,0.39,80.90,121113,,,A*58
$GPRMC,175217.400,A,5446.6239,N,00927.1109,E,0.40,80.82,121113,,,A*52
$GPRMC,175217.500,A,5446.6239,N,00927.1108,E,0.42,80.81,121113,,,A*53
$GPRMC,175217.600,A,5446.6239,N,00927.1109,E,0.47,80.88,121113,,,A*5D
$GPRMC,175217.700,A,5446.6239,N,00927.1109,E,0.48,81.08,121113,,,A*5A
$GPRMC,175217.800,A,5446.6239,N,00927.1109,E,0.48,81.26,121113,,,A*59
$GPRMC,175217.900,A,5446.6239,N,00927.1109,E,0.46,81.43,121113,,,A*55
$GPRMC,175218.000,A,5446.6239,N,00927.1109,E,0.45,81.68,121113,,,A*59
$GPRMC,175218.100,A,5446.6239,N,00927.1110,E,0.44,81.92,121113,,,A*54
$GPRMC,175218.200,A,5446.6239,N,00927.1110,E,0.43,82.08,121113,,,A*50
$GPRMC,175218.300,A,5446.6239,N,00927.1110,E,0.40,82.27,121113,,,A*5F
$GPRMC,175218.400,A,5446.6239,N,00927.1110,E,0.40,82.55,121113,,,A*5D
$GPRMC,175218.500,A,5446.6239,N,00927.1110,E,0.35,82.85,121113,,,A*53
$GPRMC,175218.600,A,5446.6239,N,00927.1110,E,0.29,83.12,121113,,,A*52
$GPRMC,175218.700,A,5446.6239,N,00927.1110,E,0.26,83.42,121113,,,A*59
$GPRMC,175218.800,A,5446.6239,N,00927.1111,E,0.25,83.77,121113,,,A*52
$GPRMC,175218.900,A,5446.6239,N,00927.1111,E,0.23,84.16,121113,,,A*55
$GPRMC,175219.000,A,5446.6239,N,00927.1111,E,0.22,84.61,121113,,,A*5C
$GPRMC,175219.100,A,5446.6239,N,00927.1111,E,0.22,85.18,121113,,,A*52
$GPRMC,175219.200,A,5446.6239,N,00927.1111,E,0.22,85.87,121113,,,A*57
$GPRMC,175219.300,A,5446.6239,N,00927.1111,E,0.22,86.67,121113,,,A*5B
$GPRMC,175219.400,A,5446.6239,N,00927.1111,E,0.22,87.48,121113,,,A*50
$GPRMC,175219.500,A,5446.6239,N,00927.1111,E,0.20,88.21,121113,,,A*53
$GPRMC,175219.600,A,5446.6239,N,00927.1111,E,0.18,88.87,121113,,,A*57
$GPRMC,175219.700,A,5446.6239,N,00927.1111,E,0.17,89.52,121113,,,A*50
$GPRMC,175219.800,A,5446.6238,N,00927.1111,E,0.16,90.14,121113,,,A*55
$GPRMC,175219.900,A,5446.6238,N,00927.1111,E,0.16,90.74,121113,,,A*52
$GPRMC,175220.000,A,5446.6238,N,00927.1111,E,0.17,91.28,121113,,,A*58
$GPRMC,175220.100,A,5446.6238,N,00927.1111,E,0.17,91.74,121113,,,A*50
$GPRMC,175220.200,A,5446.6238,N,00927.1111,E,0.20,92.17,121113,,,A*51
$GPRMC,175220.300,A,5446.6238,N,00927.1111,E,0.20,92.54,121113,,,A*57
$GPRMC,175220.400,A,5446.6238,N,00927.1111,E,0.19,92.87,121113,,,A*54
$GPRMC,175220.500,A,5446.6238,N,00927.1112,E,0.19,93.23,121113,,,A*59
$GPRMC,175220.600,A,5446.6238,N,00927.1112,E,0.18,93.50,121113,,,A*5F
$GPRMC,175220.700,A,5446.6238,N,00927.1112,E,0.17,93.64,121113,,,A*56
$GPRMC,175220.800,A,5446.6238,N,00927.1112,E,0.17,93.73,121113,,,A*5F
$GPRMC,175220.900,A,5446.6238,N,00927.1112,E,0.18,93.74,121113,,,A*56
$GPRMC,175221.000,A,5446.6238,N,00927.1112,E,0.18,93.68,121113,,,A*53
$GPRMC,175221.100,A,5446.6238,N,00927.1112,E,0.20,93.55,121113,,,A*57
$GPRMC,175221.200,A,5446.6238,N,00927.1112,E,0.23,93.40,121113,,,A*53
$GPRMC,175221.300,A,5446.6238,N,00927.1112,E,0.27,93.24,121113,,,A*54
$GPRMC,175221.400,A,5446.6238,N,00927.1112,E,0.30,93.13,121113,,,A*51
$GPRMC,175221.500,A,5446.6238,N,00927.1112,E,0.34,93.08,121113,,,A*5E
$GPRMC,175221.600,A,5446.6238,N,00927.1113,E,0.36,93.04,121113,,,A*52
$GPRMC,175221.700,A,5446.6238,N,00927.1113,E,0.38,93.02,121113,,,A*5B
$GPRMC,175221.800,A,5446.6238,N,00927.1113,E,0.43,93.06,121113,,,A*5C
$GPRMC,175221.900,A,5446.6238,N,00927.1113,E,0.44,93.06,121113,,,A*5A
$GPRMC,175222.000,A,5446.6238,N,00927.1113,E,0.44,92.95,121113,,,A*5B
$GPRMC,175222.100,A,5446.6238,N,00927.1114,E,0.44,92.76,121113,,,A*50
$GPRMC,175222.200,A,5446.6238,N,00927.1114,E,0.46,92.52,121113,,,A*57
$GPRMC,175222.300,A,5446.6238,N,00927.1114,E,0.44,92.30,121113,,,A*50
$GPRMC,175222.400,A,5446.6238,N,00927.1114,E,0.46,92.07,121113,,,A*51
$GPRMC,175222.500,A,5446.6238,N,00927.1114,E,0.48,91.84,121113,,,A*56
$GPRMC,175222.600,A,5446.6238,N,00927.1115,E,0.47,91.72,121113,,,A*52
$GPRMC,175222.700,A,5446.6238,N,00927.1115,E,0.47,91.63,121113,,,A*53
$GPRMC,175222.800,A,5446.6238,N,00927.1115,E,0.48,91.52,121113,,,A*51
$GPRMC,175222.900,A,5446.6238,N,00927.1115,E,0.48,91.42,121113,,,A*51
$GPRMC,175223.000,A,5446.6238,N,00927.1115,E,0.49,91.32,121113,,,A*5F
$GPRMC,175223.100,A,5446.6238,N,00927.1116,E,0.49,91.37,121113,,,A*58
$GPRMC,175223.200,A,5446.6238,N,00927.1116,E,0.49,91.51,121113,,,A*5B
$GPRMC,175223.300,A,5446.6238,N,00927.1116,E,0.49,91.73,121113,,,A*5A
$GPRMC,175223.400,A,5446.6238,N,00927.1116,E,0.49,92.03,121113,,,A*59
$GPRMC,175223.500,A,5446.6238,N,00927.1116,E,0.44,92.41,121113,,,A*53
$GPRMC,175223.600,A,5446.6238,N,00927.1117,E,0.42,92.85,121113,,,A*5F
$GPRMC,175223.700,A,5446.6238,N,00927.1117,E,0.39,93.37,121113,,,A*5A
$GPRMC,175223.800,A,5446.6238,N,00927.1117,E,0.38,93.92,121113,,,A*5B
$GPRMC,175223.900,A,5446.6238,N,00927.1117,E,0.37,94.55,121113,,,A*59
$GPRMC,175224.000,A,5446.6238,N,00927.1117,E,0.35,95.18,121113,,,A*5D
$GPRMC,175224.100,A,5446.6238,N,00927.1117,E,0.31,95.80,121113,,,A*59
$GPRMC,175224.200,A,5446.6238,N,00927.1117,E,0.30,96.51,121113,,,A*54
$GPRMC,175224.300,A,5446.6238,N,00927.1117,E,0.33,97.28,121113,,,A*59
$GPRMC,175224.400,A,5446.6238,N,00927.1118,E,0.35,98.13,121113,,,A*50
$GPRMC,175224.500,A,5446.6237,N,00927.1118,E,0.38,99.03,121113,,,A*53
$GPRMC,175224.600,A,5446.6237,N,00927.1118,E,0.39,100.00,121113,,,A*63
$GPRMC,175224.700,A,5446.6237,N,00927.1118,E,0.40,101.03,121113,,,A*6E
$GPRMC,175224.800,A,5446.6237,N,00927.1118,E,0.37,102.05,121113,,,A*64
$GPRMC,175224.900,A,5446.6237,N,00927.1118,E,0.33,102.97,121113,,,A*6A
$GPRMC,175225.000,A,5446.6237,N,00927.1118,E,0.29,103.82,121113,,,A*6C
$GPRMC,175225.100,A,5446.6237,N,00927.1118,E,0.28,104.67,121113,,,A*60
$GPRMC,175225.200,A,5446.6237,N,00927.1118,E,0.26,105.43,121113,,,A*6A
$GPRMC,175225.300,A,5446.6237,N,00927.1118,E,0.26,106.20,121113,,,A*6D
$GPRMC,175225.400,A,5446.6237,N,00927.1118,E,0.25,106.90,121113,,,A*62
$GPRMC,175225.500,A,5446.6237,N,00927.1118,E,0.25,107.60,121113,,,A*6D
$GPRMC,175225.600,A,5446.6237,N,00927.1118,E,0.25,108.33,121113,,,A*67
$GPRMC,175225.700,A,5446.6237,N,00927.1118,E,0.24,109.09,121113,,,A*6F
$GPRMC,175225.800,A,5446.6236,N,00927.1118,E,0.23,109.83,121113,,,A*64
$GPRMC,175225.900,A,5446.6236,N,00927.1118,E,0.21,110.60,121113,,,A*62
$GPRMC,175226.000,A,5446.6236,N,00927.1118,E,0.23,111.55,121113,,,A*6D
$GPRMC,175226.100,A,5446.6236,N,00927.1118,E,0.23,112.55,121113,,,A*6F
$GPRMC,175226.200,A,5446.6236,N,00927.1118,E,0.22,113.51,121113,,,A*68
$GPRMC,175226.300,A,5446.6236,N,00927.1118,E,0.23,114.52,121113,,,A*6C
$GPRMC,175226.400,A,5446.6236,N,00927.1118,E,0.23,115.50,121113,,,A*68
$GPRMC,175226.500,A,5446.6236,N,00927.1118,E,0.19,116.34,121113,,,A*61
$GPRMC,175226.600,A,5446.6236,N,00927.1118,E,0.19,117.16,121113,,,A*63
$GPRMC,175226.700,A,5446.6236,N,00927.1118,E,0.19,118.03,121113,,,A*69
$GPRMC,175226.800,A,5446.6236,N,00927.1118,E,0.20,118.93,121113,,,A*65
$GPRMC,175226.900,A,5446.6236,N,00927.1118,E,0.20,119.78,121113,,,A*60
$GPRMC,175227.000,A,5446.6236,N,00927.1118,E,0.19,120.52,121113,,,A*60
$GPRMC,175227.100,A,5446.6236,N,00927.1118,E,0.18,121.17,121113,,,A*60
$GPRMC,175227.200,A,5446.6236,N,00927.1118,E,0.14,121.72,121113,,,A*6C
$GPRMC,175227.300,A,5446.6236,N,00927.1118,E,0.08,122.11,121113,,,A*66
$GPRMC,175227.400,A,5446.6236,N,00927.1118,E,0.04,122.36,121113,,,A*68
$GPRMC,175227.500,A,5446.6236,N,00927.1118,E,0.02,122.48,121113,,,A*66
$GPRMC,175227.600,A,5446.6236,N,00927.1118,E,0.04,122.48,121113,,,A*63
$GPRMC,175227.700,A,5446.6236,N,00927.1118,E,0.06,122.37,121113,,,A*68
$GPRMC,175227.800,A,5446.6236,N,00927.1118,E,0.07,122.19,121113,,,A*6A
$GPRMC,175227.900,A,5446.6236,N,00927.1118,E,0.12,121.78,121113,,,A*6B
$GPRMC,175228.000,A,5446.6236,N,00927.1118,E,0.14,121.20,121113,,,A*66
$GPRMC,175228.100,A,5446.6236,N,00927.1118,E,0.15,120.49,121113,,,A*68
$GPRMC,175228.200,A,5446.6236,N,00927.1118,E,0.15,119.79,121113,,,A*62
$GPRMC,175228.300,A,5446.6236,N,00927.1118,E,0.13,119.79,121113,,,A*65
$GPRMC,175228.400,A,5446.6236,N,00927.1118,E,0.12,119.79,121113,,,A*63
$GPRMC,175228.500,A,5446.6236,N,00927.1118,E,0.13,119.79,121113,,,A*63
$GPRMC,175228.600,A,5446.6236,N,00927.1118,E,0.12,119.79,121113,,,A*61
$GPRMC,175228.700,A,5446.6236,N,00927.1118,E,0.12,119.79,121113,,,A*60
$GPRMC,175228.800,A,5446.6236,N,00927.1118,E,0.11,119.79,121113,,,A*6C
$GPRMC,175228.900,A,5446.6236,N,00927.1118,E,0.10,119.79,121113,,,A*6C
$GPRMC,175229.000,A,5446.6236,N,00927.1118,E,0.08,119.79,121113,,,A*6D
$GPRMC,175229.100,A,5446.6236,N,00927.1118,E,0.08,119.79,121113,,,A*6C
$GPRMC,175229.200,A,5446.6236,N,00927.1118,E,0.08,119.79,121113,,,A*6F
$GPRMC,175229.300,A,5446.6236,N,00927.1118,E,0.09,119.79,121113,,,A*6F
$GPRMC,175229.400,A,5446.6236,N,00927.1118,E,0.10,119.79,121113,,,A*60
$GPRMC,175229.500,A,5446.6236,N,00927.1117,E,0.13,119.79,121113,,,A*6D
$GPRMC,175229.600,A,5446.6236,N,00927.1117,E,0.16,119.79,121113,,,A*6B
$GPRMC,175229.700,A,5446.6236,N,00927.1117,E,0.20,119.79,121113,,,A*6F
$GPRMC,175229.800,A,5446.6236,N,00927.1117,E,0.26,119.79,121113,,,A*66
$GPRMC,175229.900,A,5446.6236,N,00927.1117,E,0.28,119.79,121113,,,A*69
$GPRMC,175230.000,A,5446.6236,N,00927.1117,E,0.32,119.79,121113,,,A*63
$GPRMC,175230.100,A,5446.6236,N,00927.1117,E,0.36,119.79,121113,,,A*66
$GPRMC,175230.200,A,5446.6236,N,00927.1117,E,0.38,119.79,121113,,,A*6B
$GPRMC,175230.300,A,5446.6236,N,00927.1117,E,0.39,119.79,121113,,,A*6B
$GPRMC,175230.400,A,5446.6237,N,00927.1117,E,0.38,119.79,121113,,,A*6C
$GPRMC,175230.500,A,5446.6237,N,00927.1117,E,0.37,119.79,121113,,,A*62
$GPRMC,175230.600,A,5446.6237,N,00927.1117,E,0.35,119.79,121113,,,A*63
$GPRMC,175230.700,A,5446.6237,N,00927.1117,E,0.36,119.79,121113,,,A*61
$GPRMC,175230.800,A,5446.6237,N,00927.1116,E,0.36,119.79,121113,,,A*6F
$GPRMC,175230.900,A,5446.6237,N,00927.1116,E,0.33,119.79,121113,,,A*6B
$GPRMC,175231.000,A,5446.6237,N,00927.1116,E,0.30,119.79,121113,,,A*60
$GPRMC,175231.100,A,5446.6237,N,00927.1116,E,0.29,119.79,121113,,,A*69
$GPRMC,175231.200,A,5446.6237,N,00927.1116,E,0.25,119.79,121113,,,A*66
$GPRMC,175231.300,A,5446.6237,N,00927.1116,E,0.22,119.79,121113,,,A*60
$GPRMC,175231.400,A,5446.6237,N,00927.1116,E,0.19,119.79,121113,,,A*6F
$GPRMC,175231.500,A,5446.6237,N,00927.1116,E,0.16,119.79,121113,,,A*61
$GPRMC,175231.600,A,5446.6237,N,00927.1116,E,0.13,119.79,121113,,,A*67
$GPRMC,175231.700,A,5446.6237,N,00927.1116,E,0.12,119.79,121113,,,A*67
$GPRMC,175231.800,A,5446.6237,N,00927.1116,E,0.13,119.79,121113,,,A*69
$GPRMC,175231.900,A,5446.6237,N,00927.1116,E,0.15,119.79,121113,,,A*6E
$GPRMC,175232.000,A,5446.6237,N,00927.1116,E,0.16,119.79,121113,,,A*67
$GPRMC,175232.100,A,5446.6237,N,00927.1116,E,0.16,119.79,121113,,,A*66
$GPRMC,175232.200,A,5446.6237,N,00927.1116,E,0.18,119.79,121113,,,A*6B
$GPRMC,175232.300,A,5446.6237,N,00927.1116,E,0.20,119.79,121113,,,A*61
$GPRMC,175232.400,A,5446.6237,N,00927.1115,E,0.20,119.79,121113,,,A*65
$GPRMC,175232.500,A,5446.6237,N,00927.1115,E,0.18,119.79,121113,,,A*6F
$GPRMC,175232.600,A,5446.6237,N,00927.1115,E,0.16,119.79,121113,,,A*62
$GPRMC,175232.700,A,5446.6237,N,00927.1115,E,0.14,119.79,121113,,,A*61
$GPRMC,175232.800,A,5446.6237,N,00927.1115,E,0.15,119.79,121113,,,A*6F
$GPRMC,175232.900,A,5446.6237,N,00927.1115,E,0.16,119.79,121113,,,A*6D
$GPRMC,175233.000,A,5446.6237,N,00927.1115,E,0.19,119.79,121113,,,A*6A
$GPRMC,175233.100,A,5446.6237,N,00927.1115,E,0.20,119.79,121113,,,A*61
$GPRMC,175233.200,A,5446.6236,N,00927.1115,E,0.22,119.79,121113,,,A*61
$GPRMC,175233.300,A,5446.6236,N,00927.1115,E,0.26,119.79,121113,,,A*64
$GPRMC,175233.400,A,5446.6236,N,00927.1115,E,0.31,119.79,121113,,,A*65
$GPRMC,175233.500,A,5446.6236,N,00927.1115,E,0.35,119.79,121113,,,A*60
$GPRMC,175233.600,A,5446.6236,N,00927.1115,E,0.36,119.79,121113,,,A*60
$GPRMC,175233.700,A,5446.6236,N,00927.1115,E,0.37,119.79,121113,,,A*60
$GPRMC,175233.800,A,5446.6236,N,00927.1115,E,0.39,119.79,121113,,,A*61
$GPRMC,175233.900,A,5446.6236,N,00927.1115,E,0.42,119.79,121113,,,A*6C
$GPRMC,175234.000,A,5446.6236,N,00927.1115,E,0.45,119.79,121113,,,A*65
$GPRMC,175234.100,A,5446.6236,N,00927.1115,E,0.48,119.79,121113,,,A*69
$GPRMC,175234.200,A,5446.6235,N,00927.1116,E,0.51,119.79,121113,,,A*62
$GPRMC,175234.300,A,5446.6235,N,00927.1116,E,0.51,119.79,121113,,,A*63
$GPRMC,175234.400,A,5446.6235,N,00927.1116,E,0.50,119.79,121113,,,A*65
$GPRMC,175234.500,A,5446.6235,N,00927.1116,E,0.50,119.79,121113,,,A*64
$GPRMC,175234.600,A,5446.6235,N,00927.1116,E,0.49,119.79,121113,,,A*6F
$GPRMC,175234.700,A,5446.6235,N,00927.1116,E,0.49,119.79,121113,,,A*6E
$GPRMC,175234.800,A,5446.6235,N,00927.1117,E,0.51,119.79,121113,,,A*69
$GPRMC,175234.900,A,5446.6235,N,00927.1117,E,0.52,119.79,121113,,,A*6B
$GPRMC,175235.000,A,5446.6235,N,00927.1117,E,0.54,119.79,121113,,,A*65
$GPRMC,175235.100,A,5446.6235,N,00927.1117,E,0.58,119.79,121113,,,A*68
$GPRMC,175235.200,A,5446.6235,N,00927.1118,E,0.61,119.79,121113,,,A*6E
$GPRMC,175235.300,A,5446.6235,N,00927.1119,E,0.62,119.79,121113,,,A*6D
$GPRMC,175235.400,A,5446.6236,N,00927.1120,E,0.65,137.94,121113,,,A*6B
$GPRMC,175235.500,A,5446.6236,N,00927.1122,E,0.69,135.88,121113,,,A*6B
$GPRMC,175235.600,A,5446.6236,N,00927.1123,E,0.73,133.27,121113,,,A*61
$GPRMC,175235.700,A,5446.6236,N,00927.1124,E,0.77,129.51,121113,,,A*69
$GPRMC,175235.800,A,5446.6236,N,00927.1125,E,0.80,127.11,121113,,,A*65
$GPRMC,175235.900,A,5446.6236,N,00927.1126,E,0.85,125.05,121113,,,A*65
$GPRMC,175236.000,A,5446.6236,N,00927.1127,E,0.90,123.19,121113,,,A*61
$GPRMC,175236.100,A,5446.6235,N,00927.1127,E,0.94,121.51,121113,,,A*69
$GPRMC,175236.200,A,5446.6235,N,00927.1128,E,0.98,120.06,121113,,,A*6A
$GPRMC,175236.300,A,5446.6235,N,00927.1128,E,1.02,118.81,121113,,,A*6D
$GPRMC,175236.400,A,5446.6235,N,00927.1129,E,1.05,117.66,121113,,,A*6A
$GPRMC,175236.500,A,5446.6235,N,00927.1129,E,1.09,116.56,121113,,,A*65
$GPRMC,175236.600,A,5446.6235,N,00927.1130,E,1.14,115.54,121113,,,A*63
$GPRMC,175236.700,A,5446.6235,N,00927.1130,E,1.20,114.58,121113,,,A*68
$GPRMC,175236.800,A,5446.6235,N,00927.1131,E,1.38,113.53,121113,,,A*63
$GPRMC,175236.900,A,5446.6235,N,00927.1132,E,1.42,112.46,121113,,,A*69
$GPRMC,175237.000,A,5446.6235,N,00927.1132,E,1.58,111.35,121113,,,A*6D
$GPRMC,175237.100,A,5446.6235,N,00927.1133,E,1.62,110.47,121113,,,A*60
$GPRMC,175237.200,A,5446.6235,N,00927.1134,E,1.69,109.74,121113,,,A*67
$GPRMC,175237.300,A,5446.6235,N,00927.1135,E,1.75,109.27,121113,,,A*6C
$GPRMC,175237.400,A,5446.6234,N,00927.1135,E,1.96,108.85,121113,,,A*6E
$GPRMC,175237.500,A,5446.6234,N,00927.1136,E,1.93,108.47,121113,,,A*67
$GPRMC,175237.600,A,5446.6234,N,00927.1137,E,1.88,108.15,121113,,,A*68
$GPRMC,175237.700,A,5446.6234,N,00927.1138,E,1.80,107.66,121113,,,A*65
$GPRMC,175237.800,A,5446.6234,N,00927.1139,E,1.57,106.99,121113,,,A*60
$GPRMC,175237.900,A,5446.6234,N,00927.1140,E,1.50,106.15,121113,,,A*6C
$GPRMC,175238.000,A,5446.6234,N,00927.1140,E,1.33,105.21,121113,,,A*6B
$GPRMC,175238.100,A,5446.6234,N,00927.1141,E,1.26,104.32,121113,,,A*6C
$GPRMC,175238.200,A,5446.6234,N,00927.1142,E,1.09,103.39,121113,,,A*6D
$GPRMC,175238.300,A,5446.6234,N,00927.1142,E,1.07,102.40,121113,,,A*6D
$GPRMC,175238.400,A,5446.6234,N,00927.1143,E,1.02,101.41,121113,,,A*6C
$GPRMC,175238.500,A,5446.6234,N,00927.1143,E,0.96,100.54,121113,,,A*64
$GPRMC,175238.600,A,5446.6234,N,00927.1143,E,0.91,99.73,121113,,,A*54
$GPRMC,175238.700,A,5446.6234,N,00927.1144,E,0.86,99.02,121113,,,A*52
$GPRMC,175238.800,A,5446.6234,N,00927.1144,E,0.81,98.42,121113,,,A*5F
$GPRMC,175238.900,A,5446.6234,N,00927.1145,E,0.76,97.95,121113,,,A*52
$GPRMC,175239.000,A,5446.6235,N,00927.1145,E,0.70,97.59,121113,,,A*5D
$GPRMC,175239.100,A,5446.6235,N,00927.1145,E,0.53,97.37,121113,,,A*55
$GPRMC,175239.200,A,5446.6235,N,00927.1145,E,0.50,97.27,121113,,,A*54
$GPRMC,175239.300,A,5446.6235,N,00927.1146,E,0.47,97.27,121113,,,A*50
$GPRMC,175239.400,A,5446.6235,N,00927.1146,E,0.44,97.35,121113,,,A*57
$GPRMC,175239.500,A,5446.6235,N,00927.1146,E,0.43,97.57,121113,,,A*55
$GPRMC,175239.600,A,5446.6234,N,00927.1146,E,0.41,97.79,121113,,,A*59
$GPRMC,175239.700,A,5446.6234,N,00927.1146,E,0.39,97.99,121113,,,A*59
$GPRMC,175239.800,A,5446.6234,N,00927.1147,E,0.39,98.18,121113,,,A*51
$GPRMC,175239.900,A,5446.6234,N,00927.1147,E,0.39,98.36,121113,,,A*5C
$GPRMC,175240.000,A,5446.6234,N,00927.1147,E,0.38,98.55,121113,,,A*5F
$GPRMC,175240.100,A,5446.6234,N,00927.1147,E,0.36,98.68,121113,,,A*5E
$GPRMC,175240.200,A,5446.6234,N,00927.1146,E,0.33,98.79,121113,,,A*59
$GPRMC,175240.300,A,5446.6234,N,00927.1145,E,0.29,98.86,121113,,,A*50
$GPRMC,175240.400,A,5446.6234,N,00927.1144,E,0.25,98.87,121113,,,A*5B
$GPRMC,175240.500,A,5446.6233,N,00927.1143,E,0.21,98.85,121113,,,A*5C
$GPRMC,175240.600,A,5446.6233,N,00927.1142,E,0.18,98.81,121113,,,A*50
$GPRMC,175240.700,A,5446.6233,N,00927.1140,E,0.15,98.68,121113,,,A*59
$GPRMC,175240.800,A,5446.6232,N,00927.1140,E,0.12,98.54,121113,,,A*5F
$GPRMC,175240.900,A,5446.6232,N,00927.1139,E,0.11,98.37,121113,,,A*56
$GPRMC,175241.000,A,5446.6232,N,00927.1138,E,0.09,98.16,121113,,,A*55
$GPRMC,175241.100,A,5446.6232,N,00927.1138,E,0.08,97.95,121113,,,A*51
$GPRMC,175241.200,A,5446.6232,N,00927.1138,E,0.08,97.78,121113,,,A*51
$GPRMC,175241.300,A,5446.6232,N,00927.1138,E,0.07,97.66,121113,,,A*50
$GPRMC,175241.400,A,5446.6232,N,00927.1138,E,0.06,97.57,121113,,,A*54
$GPRMC,175241.500,A,5446.6231,N,00927.1138,E,0.05,97.56,121113,,,A*54
$GPRMC,175241.600,A,5446.6232,N,00927.1138,E,0.04,97.52,121113,,,A*51
$GPRMC,175241.700,A,5446.6232,N,00927.1138,E,0.04,97.47,121113,,,A*54
$GPRMC,175241.800,A,5446.6232,N,00927.1138,E,0.04,97.36,121113,,,A*5D
$GPRMC,175241.900,A,5446.6233,N,00927.1139,E,0.06,97.16,121113,,,A*5C
$GPRMC,175242.000,A,5446.6233,N,00927.1139,E,0.08,96.90,121113,,,A*57
$GPRMC,175242.100,A,5446.6234,N,00927.1139,E,0.10,96.65,121113,,,A*52
$GPRMC,175242.200,A,5446.6233,N,00927.1138,E,0.11,96.46,121113,,,A*57
$GPRMC,175242.300,A,5446.6233,N,00927.1137,E,0.12,96.32,121113,,,A*59
$GPRMC,175242.400,A,5446.6233,N,00927.1137,E,0.12,96.19,121113,,,A*57
$GPRMC,175242.500,A,5446.6233,N,00927.1137,E,0.11,96.08,121113,,,A*55
$GPRMC,175242.600,A,5446.6233,N,00927.1137,E,0.10,96.00,121113,,,A*5F
$GPRMC,175242.700,A,5446.6233,N,00927.1137,E,0.08,95.96,121113,,,A*5B
$GPRMC,175242.800,A,5446.6233,N,00927.1137,E,0.07,95.97,121113,,,A*5A
$GPRMC,175242.900,A,5446.6233,N,00927.1137,E,0.05,95.96,121113,,,A*58
$GPRMC,175243.000,A,5446.6233,N,00927.1137,E,0.04,95.98,121113,,,A*5F
$GPRMC,175243.100,A,5446.6233,N,00927.1137,E,0.04,96.04,121113,,,A*58
$GPRMC,175243.200,A,5446.6233,N,00927.1137,E,0.03,96.13,121113,,,A*5A
$GPRMC,175243.300,A,5446.6233,N,00927.1137,E,0.04,96.29,121113,,,A*55
$GPRMC,175243.400,A,5446.6233,N,00927.1137,E,0.05,96.49,121113,,,A*55
$GPRMC,175243.500,A,5446.6233,N,00927.1137,E,0.05,96.68,121113,,,A*57
$GPRMC,175243.600,A,5446.6233,N,00927.1137,E,0.04,96.86,121113,,,A*55
$GPRMC,175243.700,A,5446.6233,N,00927.1137,E,0.03,97.00,121113,,,A*5C
$GPRMC,175243.800,A,5446.6233,N,00927.1137,E,0.01,97.05,121113,,,A*54
$GPRMC,175243.900,A,5446.6233,N,00927.1137,E,0.00,97.04,121113,,,A*55
$GPRMC,175244.000,A,5446.6233,N,00927.1137,E,0.02,96.96,121113,,,A*53
$GPRMC,175244.100,A,5446.6233,N,00927.1137,E,0.03,96.83,121113,,,A*57
$GPRMC,175244.200,A,5446.6233,N,00927.1137,E,0.04,96.66,121113,,,A*58
$GPRMC,175244.300,A,5446.6233,N,00927.1137,E,0.05,96.47,121113,,,A*5B
$GPRMC,175244.400,A,5446.6233,N,00927.1137,E,0.06,96.19,121113,,,A*54
$GPRMC,175244.500,A,5446.6233,N,00927.1137,E,0.07,95.84,121113,,,A*53
$GPRMC,175244.600,A,5446.6233,N,00927.1137,E,0.08,95.43,121113,,,A*54
$GPRMC,175244.700,A,5446.6233,N,00927.1137,E,0.10,94.95,121113,,,A*56
$GPRMC,175244.800,A,5446.6233,N,00927.1137,E,0.10,94.44,121113,,,A*55
$GPRMC,175244.900,A,5446.6233,N,00927.1137,E,0.10,93.87,121113,,,A*5C
$GPRMC,175245.000,A,5446.6233,N,00927.1137,E,0.11,93.23,121113,,,A*5B
$GPRMC,175245.100,A,5446.6233,N,00927.1137,E,0.13,92.47,121113,,,A*5B
$GPRMC,175245.200,A,5446.6233,N,00927.1137,E,0.13,91.63,121113,,,A*5D
$GPRMC,175245.300,A,5446.6233,N,00927.1136,E,0.14,90.77,121113,,,A*5E
$GPRMC,175245.400,A,5446.6233,N,00927.1136,E,0.14,89.90,121113,,,A*58
$GPRMC,175245.500,A,5446.6233,N,00927.1136,E,0.12,89.12,121113,,,A*55
$GPRMC,175245.600,A,5446.6233,N,00927.1136,E,0.10,89.12,121113,,,A*54
$GPRMC,175245.700,A,5446.6233,N,00927.1136,E,0.09,89.12,121113,,,A*5D
$GPRMC,175245.800,A,5446.6233,N,00927.1136,E,0.07,89.12,121113,,,A*5C
$GPRMC,175245.900,A,5446.6233,N,00927.1136,E,0.07,89.12,121113,,,A*5D
$GPRMC,175246.000,A,5446.6233,N,00927.1136,E,0.07,89.12,121113,,,A*57
$GPRMC,175246.100,A,5446.6233,N,00927.1136,E,0.07,89.12,121113,,,A*56
$GPRMC,175246.200,A,5446.6233,N,00927.1136,E,0.06,89.12,121113,,,A*54
$GPRMC,175246.300,A,5446.6233,N,00927.1136,E,0.06,89.12,121113,,,A*55
$GPRMC,175246.400,A,5446.6233,N,00927.1136,E,0.05,89.12,121113,,,A*51
$GPRMC,175246.500,A,5446.6233,N,00927.1136,E,0.05,89.12,121113,,,A*50
$GPRMC,175246.600,A,5446.6233,N,00927.1136,E,0.05,89.12,121113,,,A*53
$GPRMC,175246.700,A,5446.6233,N,00927.1136,E,0.05,89.12,121113,,,A*52
$GPRMC,175246.800,A,5446.6233,N,00927.1136,E,0.04,89.12,121113,,,A*5C
$GPRMC,175246.900,A,5446.6233,N,00927.1136,E,0.04,89.12,121113,,,A*5D
$GPRMC,175247.000,A,5446.6233,N,00927.1136,E,0.05,89.12,121113,,,A*54
$GPRMC,175247.100,A,5446.6233,N,00927.1136,E,0.06,89.12,121113,,,A*56
$GPRMC,175247.200,A,5446.6233,N,00927.1136,E,0.08,89.12,121113,,,A*5B
$GPRMC,175247.300,A,5446.6233,N,00927.1136,E,0.10,89.12,121113,,,A*53
$GPRMC,175247.400,A,5446.6233,N,00927.1136,E,0.11,89.12,121113,,,A*55
$GPRMC,175247.500,A,5446.6233,N,00927.1136,E,0.13,89.12,121113,,,A*56
$GPRMC,175247.600,A,5446.6233,N,00927.1136,E,0.14,89.12,121113,,,A*52
$GPRMC,175247.700,A,5446.6233,N,00927.1136,E,0.15,89.12,121113,,,A*52
$GPRMC,175247.800,A,5446.6233,N,00927.1136,E,0.16,89.12,121113,,,A*5E
$GPRMC,175247.900,A,5446.6233,N,00927.1135,E,0.17,89.12,121113,,,A*5D
$GPRMC,175248.000,A,5446.6233,N,00927.1135,E,0.17,89.12,121113,,,A*5B
$GPRMC,175248.100,A,5446.6233,N,00927.1135,E,0.18,89.12,121113,,,A*55
$GPRMC,175248.200,A,5446.6233,N,00927.1135,E,0.19,89.12,121113,,,A*57
$GPRMC,175248.300,A,5446.6233,N,00927.1135,E,0.18,89.12,121113,,,A*57
$GPRMC,175248.400,A,5446.6233,N,00927.1135,E,0.18,89.12,121113,,,A*50
$GPRMC,175248.500,A,5446.6233,N,00927.1135,E,0.17,89.12,121113,,,A*5E
$GPRMC,175248.600,A,5446.6233,N,00927.1135,E,0.16,89.12,121113,,,A*5C
$GPRMC,175248.700,A,5446.6233,N,00927.1135,E,0.16,89.12,121113,,,A*5D
$GPRMC,175248.800,A,5446.6233,N,00927.1135,E,0.15,89.12,121113,,,A*51
$GPRMC,175248.900,A,5446.6233,N,00927.1135,E,0.14,89.12,121113,,,A*51
$GPRMC,175249.000,A,5446.6233,N,00927.1135,E,0.13,89.12,121113,,,A*5E
$GPRMC,175249.100,A,5446.6233,N,00927.1135,E,0.12,89.12,121113,,,A*5E
$GPRMC,175249.200,A,5446.6233,N,00927.1134,E,0.12,89.12,121113,,,A*5C
$GPRMC,175249.300,A,5446.6233,N,00927.1134,E,0.11,89.12,121113,,,A*5E
$GPRMC,175249.400,A,5446.6233,N,00927.1134,E,0.11,89.12,121113,,,A*59
$GPRMC,175249.500,A,5446.6233,N,00927.1134,E,0.10,89.12,121113,,,A*59
$GPRMC,175249.600,A,5446.6233,N,00927.1134,E,0.09,89.12,121113,,,A*52
$GPRMC,175249.700,A,5446.6233,N,00927.1134,E,0.08,89.12,121113,,,A*52
$GPRMC,175249.800,A,5446.6233,N,00927.1134,E,0.07,89.12,121113,,,A*52
$GPRMC,175249.900,A,5446.6233,N,00927.1134,E,0.05,89.12,121113,,,A*51
$GPRMC,175250.000,A,5446.6233,N,00927.1134,E,0.03,89.12,121113,,,A*56
$GPRMC,175250.100,A,5446.6233,N,00927.1134,E,0.02,89.12,121113,,,A*56
$GPRMC,175250.200,A,5446.6233,N,00927.1134,E,0.02,89.12,121113,,,A*55
$GPRMC,175250.300,A,5446.6233,N,00927.1134,E,0.02,89.12,121113,,,A*54
$GPRMC,175250.400,A,5446.6233,N,00927.1134,E,0.01,89.12,121113,,,A*50
$GPRMC,175250.500,A,5446.6233,N,00927.1134,E,0.01,89.12,121113,,,A*51
$GPRMC,175250.600,A,5446.6233,N,00927.1134,E,0.01,89.12,121113,,,A*52
$GPRMC,175250.700,A,5446.6233,N,00927.1134,E,0.00,89.12,121113,,,A*52
$GPRMC,175250.800,A,5446.6233,N,00927.1134,E,0.01,89.12,121113,,,A*5C
$GPRMC,175250.900,A,5446.6233,N,00927.1134,E,0.02,89.12,121113,,,A*5E
$GPRMC,175251.000,A,5446.6233,N,00927.1134,E,0.03,89.12,121113,,,A*57
$GPRMC,175251.100,A,5446.6233,N,00927.1134,E,0.03,89.12,121113,,,A*56
$GPRMC,175251.200,A,5446.6233,N,00927.1134,E,0.04,89.12,121113,,,A*52
$GPRMC,175251.300,A,5446.6233,N,00927.1134,E,0.04,89.12,121113,,,A*53
$GPRMC,175251.400,A,5446.6233,N,00927.1134,E,0.04,89.12,121113,,,A*54
$GPRMC,175251.500,A,5446.6233,N,00927.1134,E,0.04,89.12,121113,,,A*55
$GPRMC,175251.600,A,5446.6233,N,00927.1134,E,0.05,89.12,121113,,,A*57
$GPRMC,175251.700,A,5446.6233,N,00927.1134,E,0.06,89.12,121113,,,A*55
$GPRMC,175251.800,A,5446.6233,N,00927.1134,E,0.07,89.12,121113,,,A*5B
$GPRMC,175251.900,A,5446.6233,N,00927.1134,E,0.07,89.12,121113,,,A*5A
$GPRMC,175252.000,A,5446.6233,N,00927.1134,E,0.07,89.12,121113,,,A*50
$GPRMC,175252.100,A,5446.6233,N,00927.1134,E,0.08,89.12,121113,,,A*5E
$GPRMC,175252.200,A,5446.6233,N,00927.1134,E,0.09,89.12,121113,,,A*5C
$GPRMC,175252.300,A,5446.6233,N,00927.1134,E,0.09,89.12,121113,,,A*5D
$GPRMC,175252.400,A,5446.6233,N,00927.1134,E,0.09,89.12,121113,,,A*5A
$GPRMC,175252.500,A,5446.6233,N,00927.1134,E,0.09,89.12,121113,,,A*5B
$GPRMC,175252.600,A,5446.6233,N,00927.1134,E,0.09,89.12,121113,,,A*58
$GPRMC,175252.700,A,5446.6233,N,00927.1134,E,0.09,89.12,121113,,,A*59
$GPRMC,175252.800,A,5446.6233,N,00927.1134,E,0.10,89.12,121113,,,A*5E
$GPRMC,175252.900,A,5446.6233,N,00927.1134,E,0.10,89.12,121113,,,A*5F
$GPRMC,175253.000,A,5446.6233,N,00927.1134,E,0.10,89.12,121113,,,A*57
$GPRMC,175253.100,A,5446.6233,N,00927.1134,E,0.10,89.12,121113,,,A*56
$GPRMC,175253.200,A,5446.6233,N,00927.1134,E,0.10,89.12,121113,,,A*55
$GPRMC,175253.300,A,5446.6233,N,00927.1134,E,0.09,89.12,121113,,,A*5C
$GPRMC,175253.400,A,5446.6233,N,00927.1134,E,0.09,89.12,121113,,,A*5B
$GPRMC,175253.500,A,5446.6233,N,00927.1134,E,0.09,89.12,121113,,,A*5A
$GPRMC,175253.600,A,5446.6233,N,00927.1134,E,0.09,89.12,121113,,,A*59
$GPRMC,175253.700,A,5446.6233,N,00927.1134,E,0.08,89.12,121113,,,A*59
$GPRMC,175253.800,A,5446.6233,N,00927.1134,E,0.07,89.12,121113,,,A*59
$GPRMC,175253.900,A,5446.6233,N,00927.1134,E,0.06,89.12,121113,,,A*59
$GPRMC,175254.000,A,5446.6233,N,00927.1134,E,0.05,89.12,121113,,,A*54
$GPRMC,175254.100,A,5446.6233,N,00927.1134,E,0.04,89.12,121113,,,A*54
$GPRMC,175254.200,A,5446.6233,N,00927.1134,E,0.05,89.12,121113,,,A*56
$GPRMC,175254.300,A,5446.6233,N,00927.1134,E,0.06,89.12,121113,,,A*54
$GPRMC,175254.400,A,5446.6233,N,00927.1134,E,0.07,89.12,121113,,,A*52
$GPRMC,175254.500,A,5446.6233,N,00927.1134,E,0.08,89.12,121113,,,A*5C
$GPRMC,175254.600,A,5446.6233,N,00927.1133,E,0.09,89.12,121113,,,A*59
$GPRMC,175254.700,A,5446.6233,N,00927.1133,E,0.09,89.12,121113,,,A*58
$GPRMC,175254.800,A,5446.6233,N,00927.1133,E,0.09,89.12,121113,,,A*57
$GPRMC,175254.900,A,5446.6233,N,00927.1133,E,0.09,89.12,121113,,,A*56
$GPRMC,175255.000,A,5446.6233,N,00927.1133,E,0.09,89.12,121113,,,A*5E
$GPRMC,175255.100,A,5446.6233,N,00927.1133,E,0.09,89.12,121113,,,A*5F
$GPRMC,175255.200,A,5446.6233,N,00927.1133,E,0.09,89.12,121113,,,A*5C
$GPRMC,175255.300,A,5446.6233,N,00927.1133,E,0.08,89.12,121113,,,A*5C
$GPRMC,175255.400,A,5446.6233,N,00927.1133,E,0.09,89.12,121113,,,A*5A
$GPRMC,175255.500,A,5446.6233,N,00927.1133,E,0.09,89.12,121113,,,A*5B
$GPRMC,175255.600,A,5446.6233,N,00927.1133,E,0.09,89.12,121113,,,A*58
$GPRMC,175255.700,A,5446.6233,N,00927.1133,E,0.10,89.12,121113,,,A*51
$GPRMC,175255.800,A,5446.6233,N,00927.1133,E,0.11,89.12,121113,,,A*5F
$GPRMC,175255.900,A,5446.6233,N,00927.1133,E,0.11,89.12,121113,,,A*5E
$GPRMC,175256.000,A,5446.6233,N,00927.1133,E,0.11,89.12,121113,,,A*54
$GPRMC,175256.100,A,5446.6233,N,00927.1133,E,0.11,89.12,121113,,,A*55
$GPRMC,175256.200,A,5446.6232,N,00927.1133,E,0.12,89.12,121113,,,A*54
$GPRMC,175256.300,A,5446.6232,N,00927.1132,E,0.12,89.12,121113,,,A*54
$GPRMC,175256.400,A,5446.6232,N,00927.1132,E,0.13,89.12,121113,,,A*52
$GPRMC,175256.500,A,5446.6232,N,00927.1132,E,0.14,89.12,121113,,,A*54
$GPRMC,175256.600,A,5446.6232,N,00927.1132,E,0.14,89.12,121113,,,A*57
$GPRMC,175256.700,A,5446.6232,N,00927.1132,E,0.14,89.12,121113,,,A*56
$GPRMC,175256.800,A,5446.6232,N,00927.1132,E,0.14,89.12,121113,,,A*59
$GPRMC,175256.900,A,5446.6232,N,00927.1132,E,0.14,89.12,121113,,,A*58
$GPRMC,175257.000,A,5446.6232,N,00927.1132,E,0.14,89.12,121113,,,A*50
$GPRMC,175257.100,A,5446.6232,N,00927.1132,E,0.14,89.12,121113,,,A*51
$GPRMC,175257.200,A,5446.6232,N,00927.1132,E,0.15,89.12,121113,,,A*53
$GPRMC,175257.300,A,5446.6232,N,00927.1132,E,0.15,89.12,121113,,,A*52
$GPRMC,175257.400,A,5446.6232,N,00927.1132,E,0.16,89.12,121113,,,A*56
$GPRMC,175257.500,A,5446.6232,N,00927.1132,E,0.17,89.12,121113,,,A*56
$GPRMC,175257.600,A,5446.6232,N,00927.1132,E,0.18,89.12,121113,,,A*5A
$GPRMC,175257.700,A,5446.6232,N,00927.1132,E,0.19,89.12,121113,,,A*5A
$GPRMC,175257.800,A,5446.6232,N,00927.1132,E,0.20,89.12,121113,,,A*5F
$GPRMC,175257.900,A,5446.6232,N,00927.1132,E,0.21,89.12,121113,,,A*5F
$GPRMC,175258.000,A,5446.6232,N,00927.1132,E,0.22,89.12,121113,,,A*5A
$GPRMC,175258.100,A,5446.6232,N,00927.1132,E,0.22,89.12,121113,,,A*5B
$GPRMC,175258.200,A,5446.6232,N,00927.1132,E,0.22,89.12,121113,,,A*58
$GPRMC,175258.300,A,5446.6231,N,00927.1132,E,0.21,89.12,121113,,,A*59
$GPRMC,175258.400,A,5446.6231,N,00927.1132,E,0.20,89.12,121113,,,A*5F
$GPRMC,175258.500,A,5446.6231,N,00927.1131,E,0.20,89.12,121113,,,A*5D
$GPRMC,175258.600,A,5446.6231,N,00927.1131,E,0.20,89.12,121113,,,A*5E
$GPRMC,175258.700,A,5446.6231,N,00927.1131,E,0.20,89.12,121113,,,A*5F
$GPRMC,175258.800,A,5446.6231,N,00927.1131,E,0.19,89.12,121113,,,A*5A
$GPRMC,175258.900,A,5446.6231,N,00927.1131,E,0.19,89.12,121113,,,A*5B
$GPRMC,175259.000,A,5446.6231,N,00927.1131,E,0.19,89.12,121113,,,A*53
$GPRMC,175259.100,A,5446.6231,N,00927.1131,E,0.19,89.12,121113,,,A*52
$GPRMC,175259.200,A,5446.6231,N,00927.1131,E,0.19,89.12,121113,,,A*51
$GPRMC,175259.300,A,5446.6231,N,00927.1131,E,0.19,89.12,121113,,,A*50
$GPRMC,175259.400,A,5446.6231,N,00927.1131,E,0.18,89.12,121113,,,A*56
$GPRMC,175259.500,A,5446.6231,N,00927.1131,E,0.18,89.12,121113,,,A*57
$GPRMC,175259.600,A,5446.6231,N,00927.1131,E,0.18,89.12,121113,,,A*54
$GPRMC,175259.700,A,5446.6231,N,00927.1131,E,0.18,89.12,121113,,,A*55
$GPRMC,175259.800,A,5446.6231,N,00927.1131,E,0.18,89.12,121113,,,A*5A
$GPRMC,175259.900,A,5446.6231,N,00927.1131,E,0.19,89.12,121113,,,A*5A
$GPRMC,175300.000,A,5446.6231,N,00927.1131,E,0.19,89.12,121113,,,A*5E
$GPRMC,175300.100,A,5446.6231,N,00927.1131,E,0.19,89.12,121113,,,A*5F
$GPRMC,175300.200,A,5446.6231,N,00927.1130,E,0.18,89.12,121113,,,A*5C
$GPRMC,175300.300,A,5446.6231,N,00927.1130,E,0.18,89.12,121113,,,A*5D
$GPRMC,175300.400,A,5446.6231,N,00927.1130,E,0.20,89.12,121113,,,A*51
$GPRMC,175300.500,A,5446.6230,N,00927.1130,E,0.21,89.12,121113,,,A*50
$GPRMC,175300.600,A,5446.6230,N,00927.1130,E,0.22,89.12,121113,,,A*50
$GPRMC,175300.700,A,5446.6230,N,00927.1130,E,0.23,89.12,121113,,,A*50
$GPRMC,175300.800,A,5446.6230,N,00927.1130,E,0.23,89.12,121113,,,A*5F
$GPRMC,175300.900,A,5446.6230,N,00927.1130,E,0.24,89.12,121113,,,A*59
$GPRMC,175301.000,A,5446.6230,N,00927.1130,E,0.25,89.12,121113,,,A*50
$GPRMC,175301.100,A,5446.6230,N,00927.1130,E,0.25,89.12,121113,,,A*51
$GPRMC,175301.200,A,5446.6230,N,00927.1130,E,0.24,89.12,121113,,,A*53
$GPRMC,175301.300,A,5446.6230,N,00927.1130,E,0.24,89.12,121113,,,A*52
$GPRMC,175301.400,A,5446.6230,N,00927.1130,E,0.25,89.12,121113,,,A*54
$GPRMC,175301.500,A,5446.6230,N,00927.1130,E,0.26,89.12,121113,,,A*56
$GPRMC,175301.600,A,5446.6230,N,00927.1130,E,0.27,89.12,121113,,,A*54
$GPRMC,175301.700,A,5446.6230,N,00927.1130,E,0.27,89.12,121113,,,A*55
$GPRMC,175301.800,A,5446.6230,N,00927.1129,E,0.27,89.12,121113,,,A*52
$GPRMC,175301.900,A,5446.6230,N,00927.1129,E,0.27,89.12,121113,,,A*53
$GPRMC,175302.000,A,5446.6229,N,00927.1129,E,0.27,89.12,121113,,,A*51
$GPRMC,175302.100,A,5446.6229,N,00927.1129,E,0.26,212.94,121113,,,A*6F
$GPRMC,175302.200,A,5446.6229,N,00927.1129,E,0.25,212.74,121113,,,A*61
$GPRMC,175302.300,A,5446.6229,N,00927.1129,E,0.25,212.56,121113,,,A*60
$GPRMC,175302.400,A,5446.6229,N,00927.1129,E,0.24,212.45,121113,,,A*64
$GPRMC,175302.500,A,5446.6229,N,00927.1129,E,0.24,212.43,121113,,,A*63
$GPRMC,175302.600,A,5446.6229,N,00927.1129,E,0.24,212.54,121113,,,A*66
$GPRMC,175302.700,A,5446.6229,N,00927.1129,E,0.24,212.72,121113,,,A*63
$GPRMC,175302.800,A,5446.6229,N,00927.1129,E,0.24,212.97,121113,,,A*67
$GPRMC,175302.900,A,5446.6229,N,00927.1129,E,0.25,213.26,121113,,,A*6C
$GPRMC,175303.000,A,5446.6229,N,00927.1129,E,0.26,213.62,121113,,,A*67
$GPRMC,175303.100,A,5446.6229,N,00927.1128,E,0.28,213.99,121113,,,A*6D
$GPRMC,175303.200,A,5446.6229,N,00927.1128,E,0.30,214.39,121113,,,A*6A
$GPRMC,175303.300,A,5446.6229,N,00927.1128,E,0.31,214.82,121113,,,A*6A
$GPRMC,175303.400,A,5446.6229,N,00927.1128,E,0.32,215.22,121113,,,A*65
$GPRMC,175303.500,A,5446.6229,N,00927.1128,E,0.32,215.61,121113,,,A*63
$GPRMC,175303.600,A,5446.6228,N,00927.1128,E,0.33,215.98,121113,,,A*66
$GPRMC,175303.700,A,5446.6228,N,00927.1128,E,0.33,216.29,121113,,,A*6E
$GPRMC,175303.800,A,5446.6228,N,00927.1128,E,0.33,216.59,121113,,,A*66
$GPRMC,175303.900,A,5446.6228,N,00927.1128,E,0.34,216.85,121113,,,A*61
$GPRMC,175304.000,A,5446.6228,N,00927.1127,E,0.35,217.12,121113,,,A*6E
$GPRMC,175304.100,A,5446.6228,N,00927.1127,E,0.36,217.37,121113,,,A*6B
$GPRMC,175304.200,A,5446.6228,N,00927.1127,E,0.37,217.58,121113,,,A*60
$GPRMC,175304.300,A,5446.6228,N,00927.1127,E,0.39,217.80,121113,,,A*6A
$GPRMC,175304.400,A,5446.6228,N,00927.1127,E,0.40,218.05,121113,,,A*61
$GPRMC,175304.500,A,5446.6228,N,00927.1127,E,0.42,218.28,121113,,,A*6D
$GPRMC,175304.600,A,5446.6228,N,00927.1127,E,0.43,218.51,121113,,,A*61
$GPRMC,175304.700,A,5446.6228,N,00927.1126,E,0.44,218.74,121113,,,A*61
$GPRMC,175304.800,A,5446.6227,N,00927.1126,E,0.46,218.96,121113,,,A*6F
$GPRMC,175304.900,A,5446.6227,N,00927.1126,E,0.47,219.16,121113,,,A*66
$GPRMC,175305.000,A,5446.6227,N,00927.1126,E,0.47,219.36,121113,,,A*6C
$GPRMC,175305.100,A,5446.6227,N,00927.1126,E,0.48,219.54,121113,,,A*66
$GPRMC,175305.200,A,5446.6227,N,00927.1126,E,0.47,219.71,121113,,,A*6D
$GPRMC,175305.300,A,5446.6227,N,00927.1125,E,0.48,219.88,121113,,,A*66
$GPRMC,175305.400,A,5446.6227,N,00927.1125,E,0.49,220.02,121113,,,A*68
$GPRMC,175305.500,A,5446.6227,N,00927.1125,E,0.50,220.15,121113,,,A*67
$GPRMC,175305.600,A,5446.6227,N,00927.1125,E,0.51,220.27,121113,,,A*64
$GPRMC,175305.700,A,5446.6226,N,00927.1125,E,0.51,220.38,121113,,,A*6A
$GPRMC,175305.800,A,5446.6226,N,00927.1124,E,0.51,220.46,121113,,,A*6D
$GPRMC,175305.900,A,5446.6226,N,00927.1124,E,0.51,220.54,121113,,,A*6F
$GPRMC,175306.000,A,5446.6226,N,00927.1124,E,0.52,220.61,121113,,,A*60
$GPRMC,175306.100,A,5446.6226,N,00927.1124,E,0.52,220.66,121113,,,A*66
$GPRMC,175306.200,A,5446.6226,N,00927.1124,E,0.53,220.70,121113,,,A*63
$GPRMC,175306.300,A,5446.6226,N,00927.1124,E,0.54,220.69,121113,,,A*6D
$GPRMC,175306.400,A,5446.6226,N,00927.1123,E,0.55,220.65,121113,,,A*60
$GPRMC,175306.500,A,5446.6226,N,00927.1123,E,0.55,220.59,121113,,,A*6E
$GPRMC,175306.600,A,5446.6225,N,00927.1123,E,0.56,220.52,121113,,,A*66
$GPRMC,175306.700,A,5446.6225,N,00927.1123,E,0.57,220.47,121113,,,A*62
$GPRMC,175306.800,A,5446.6225,N,00927.1123,E,0.58,220.41,121113,,,A*64
$GPRMC,175306.900,A,5446.6225,N,00927.1122,E,0.57,220.34,121113,,,A*69
$GPRMC,175307.000,A,5446.6225,N,00927.1122,E,0.57,220.28,121113,,,A*6C
$GPRMC,175307.100,A,5446.6225,N,00927.1122,E,0.57,220.26,121113,,,A*63
$GPRMC,175307.200,A,5446.6225,N,00927.1122,E,0.56,220.26,121113,,,A*61
$GPRMC,175307.300,A,5446.6224,N,00927.1122,E,0.57,220.28,121113,,,A*6E
$GPRMC,175307.400,A,5446.6224,N,00927.1122,E,0.56,220.31,121113,,,A*60
$GPRMC,175307.500,A,5446.6224,N,00927.1121,E,0.55,220.33,121113,,,A*63
